#version,serial,flight,call,time,state,state_name,acceleration,pressure,altitude,height,speed,temperature,drogue_voltage,main_voltage,battery_voltage,accel_x,accel_y,accel_z,gyro_roll,gyro_pitch,gyro_yaw,mag_x,mag_y,mag_z,tilt,pyro,igniter_a,igniter_b,igniter_c,igniter_d,connected,locked,nsat,latitude,longitude,altitude,year,month,day,hour,minute,second,pad_dist,pad_range,pad_az,pad_el,pdop,hdop,vdop,sat01,sat02,sat03,sat04,sat05,sat06,sat07,sat08,sat09,sat10,sat11,sat12,sat13,sat14,sat15,sat16,sat17,sat18,sat19,sat20,sat21,sat22,sat23,sat24,sat25,sat26,sat27,sat28,sat29,sat30,sat31,sat32
6, 6606, 5,N3MCA,    -0.30, 3,   boost,    1.47,  97274.00,  342.81,   -0.26,    0.01, 18.4, 3.91, 3.90, 3.91,   9.88,  -0.01,   0.19,  -1.11,  -0.05,   0.00,  -0.63,   0.32,  -0.21,   0.89, 3.94, 3.92, 3.91, 0.00, 0.00, 1, 1, 12,  37.1688284, -97.7339165,   376.0, 2024,  3, 23, 21,  2, 58,        0,        0,   0,   0,   1.4,   0.7,   1.2,  0,  0, 28,  0,  0, 36,  0,  0,  0,  0, 27, 33,  0, 37,  0,  0, 16,  0, 30, 42,  0, 39,  0, 29, 32,  0,  0,  0,  0,  0,  0,  0
6, 6606, 5,N3MCA,    -0.29, 3,   boost,    2.45,  97280.00,  342.29,   -0.77,    0.02, 18.4, 3.91, 3.90, 3.91,   9.92,  -0.04,   0.15,  -0.68,   0.01,   0.00,  -0.65,   0.32,  -0.21,   0.89, 3.94, 3.92, 3.91, 0.00, 0.00, 1, 1, 12,  37.1688284, -97.7339165,   376.0, 2024,  3, 23, 21,  2, 58,        0,        0,   0,   0,   1.4,   0.7,   1.2,  0,  0, 28,  0,  0, 36,  0,  0,  0,  0, 27, 33,  0, 37,  0,  0, 16,  0, 30, 42,  0, 39,  0, 29, 32,  0,  0,  0,  0,  0,  0,  0
6, 6606, 5,N3MCA,    -0.28, 3,   boost,    0.98,  97271.00,  343.07,    0.00,    0.03, 18.4, 3.91, 3.90, 3.91,   9.92,  -0.04,   0.15,  -0.68,   0.01,   0.00,  -0.65,   0.32,  -0.21,   0.89, 3.94, 3.92, 3.91, 0.00, 0.00, 1, 1, 12,  37.1688284, -97.7339165,   376.0, 2024,  3, 23, 21,  2, 58,        0,        0,   0,   0,   1.4,   0.7,   1.2,  0,  0, 28,  0,  0, 36,  0,  0,  0,  0, 27, 33,  0, 37,  0,  0, 16,  0, 30, 42,  0, 39,  0, 29, 32,  0,  0,  0,  0,  0,  0,  0
6, 6606, 5,N3MCA,    -0.27, 3,   boost,    2.45,  97264.00,  343.67,    0.60,    0.05, 18.4, 3.91, 3.90, 3.91,   9.88,  -0.02,   0.11,   0.36,   0.25,  -0.06,  -0.62,   0.30,  -0.25,   0.89, 3.94, 3.92, 3.91, 0.00, 0.00, 1, 1, 12,  37.1688284, -97.7339165,   376.0, 2024,  3, 23, 21,  2, 58,        0,        0,   0,   0,   1.4,   0.7,   1.2,  0,  0, 28,  0,  0, 36,  0,  0,  0,  0, 27, 33,  0, 37,  0,  0, 16,  0, 30, 42,  0, 39,  0, 29, 32,  0,  0,  0,  0,  0,  0,  0
6, 6606, 5,N3MCA,    -0.26, 3,   boost,   -0.49,  97275.00,  342.72,   -0.34,    0.06, 18.4, 3.91, 3.90, 3.91,   9.92,  -0.02,   0.07,   0.60,  -0.05,   0.06,  -0.64,   0.30,  -0.23,   0.89, 3.94, 3.92, 3.91, 0.00, 0.00, 1, 1, 12,  37.1688284, -97.7339165,   376.0, 2024,  3, 23, 21,  2, 58,        0,        0,   0,   0,   1.4,   0.7,   1.2,  0,  0, 28,  0,  0, 36,  0,  0,  0,  0, 27, 33,  0, 37,  0,  0, 16,  0, 30, 42,  0, 39,  0, 29, 32,  0,  0,  0,  0,  0,  0,  0
6, 6606, 5,N3MCA,    -0.25, 3,   boost,    1.47,  97272.00,  342.98,   -0.09,    0.07, 18.4, 3.91, 3.90, 3.91,   9.91,  -0.01,   0.15,   1.09,   0.01,   0.12,  -0.64,   0.30,  -0.21,   0.89, 3.94, 3.92, 3.91, 0.00, 0.00, 1, 1, 12,  37.1688284, -97.7339165,   376.0, 2024,  3, 23, 21,  2, 58,        0,        0,   0,   0,   1.4,   0.7,   1.2,  0,  0, 28,  0,  0, 36,  0,  0,  0,  0, 27, 33,  0, 37,  0,  0, 16,  0, 30, 42,  0, 39,  0, 29, 32,  0,  0,  0,  0,  0,  0,  0
6, 6606, 5,N3MCA,    -0.24, 3,   boost,    1.96,  97260.00,  344.01,    0.95,    0.08, 18.4, 3.91, 3.90, 3.91,   9.89,  -0.06,   0.13,   1.52,   0.07,   0.06,  -0.62,   0.32,  -0.18,   0.89, 3.94, 3.92, 3.91, 0.00, 0.00, 1, 1, 12,  37.1688284, -97.7339165,   376.0, 2024,  3, 23, 21,  2, 58,        0,        0,   0,   0,   1.4,   0.7,   1.2,  0,  0, 28,  0,  0, 36,  0,  0,  0,  0, 27, 33,  0, 37,  0,  0, 16,  0, 30, 42,  0, 39,  0, 29, 32,  0,  0,  0,  0,  0,  0,  0
6, 6606, 5,N3MCA,    -0.23, 3,   boost,   -0.00,  97268.00,  343.32,    0.26,    0.09, 18.4, 3.91, 3.90, 3.91,   9.94,  -0.00,   0.15,   1.46,   0.01,   0.00,  -0.63,   0.32,  -0.15,   0.89, 3.94, 3.92, 3.91, 0.00, 0.00, 1, 1, 12,  37.1688284, -97.7339165,   376.0, 2024,  3, 23, 21,  2, 58,        0,        0,   0,   0,   1.4,   0.7,   1.2,  0,  0, 28,  0,  0, 36,  0,  0,  0,  0, 27, 33,  0, 37,  0,  0, 16,  0, 30, 42,  0, 39,  0, 29, 32,  0,  0,  0,  0,  0,  0,  0
6, 6606, 5,N3MCA,    -0.22, 3,   boost,    1.47,  97262.00,  343.84,    0.77,    0.10, 18.4, 3.91, 3.90, 3.91,   9.93,  -0.01,   0.04,   1.89,  -0.05,   0.06,  -0.63,   0.32,  -0.17,   0.89, 3.94, 3.92, 3.91, 0.00, 0.00, 1, 1, 12,  37.1688284, -97.7339165,   376.0, 2024,  3, 23, 21,  2, 58,        0,        0,   0,   0,   1.4,   0.7,   1.2,  0,  0, 28,  0,  0, 36,  0,  0,  0,  0, 27, 33,  0, 37,  0,  0, 16,  0, 30, 42,  0, 39,  0, 29, 32,  0,  0,  0,  0,  0,  0,  0
6, 6606, 5,N3MCA,    -0.21, 3,   boost,    0.49,  97270.00,  343.15,    0.09,    0.11, 18.4, 3.91, 3.90, 3.91,   9.96,  -0.13,   0.05,   1.89,   0.07,   0.00,  -0.64,   0.30,  -0.20,   0.89, 3.94, 3.92, 3.91, 0.00, 0.00, 1, 1, 12,  37.1688284, -97.7339165,   376.0, 2024,  3, 23, 21,  2, 58,        0,        0,   0,   0,   1.4,   0.7,   1.2,  0,  0, 28,  0,  0, 36,  0,  0,  0,  0, 27, 33,  0, 37,  0,  0, 16,  0, 30, 42,  0, 39,  0, 29, 32,  0,  0,  0,  0,  0,  0,  0
6, 6606, 5,N3MCA,    -0.20, 3,   boost,   -0.00,  97273.00,  342.89,   -0.17,    0.11, 18.4, 3.91, 3.90, 3.91,   9.87,  -0.05,   0.01,   1.82,   0.19,   0.00,  -0.63,   0.32,  -0.17,   0.89, 3.94, 3.92, 3.91, 0.00, 0.00, 1, 1, 12,  37.1688284, -97.7339165,   376.0, 2024,  3, 23, 21,  2, 58,        0,        0,   0,   0,   1.4,   0.7,   1.2,  0,  0, 28,  0,  0, 36,  0,  0,  0,  0, 27, 33,  0, 37,  0,  0, 16,  0, 30, 42,  0, 39,  0, 29, 32,  0,  0,  0,  0,  0,  0,  0
6, 6606, 5,N3MCA,    -0.19, 3,   boost,    0.98,  97279.00,  342.38,   -0.69,    0.11, 18.4, 3.91, 3.90, 3.91,   9.95,  -0.07,   0.03,   1.64,   0.13,  -0.06,  -0.65,   0.32,  -0.24,   0.89, 3.94, 3.92, 3.91, 0.00, 0.00, 1, 1, 12,  37.1688284, -97.7339165,   376.0, 2024,  3, 23, 21,  2, 58,        0,        0,   0,   0,   1.4,   0.7,   1.2,  0,  0, 28,  0,  0, 36,  0,  0,  0,  0, 27, 33,  0, 37,  0,  0, 16,  0, 30, 42,  0, 39,  0, 29, 32,  0,  0,  0,  0,  0,  0,  0
6, 6606, 5,N3MCA,    -0.18, 3,   boost,   -0.49,  97269.00,  343.24,    0.17,    0.11, 18.4, 3.91, 3.90, 3.91,   9.95,  -0.08,   0.18,   1.58,   0.13,   0.00,  -0.62,   0.31,  -0.14,   0.89, 3.94, 3.92, 3.91, 0.00, 0.00, 1, 1, 12,  37.1688284, -97.7339165,   376.0, 2024,  3, 23, 21,  2, 58,        0,        0,   0,   0,   1.4,   0.7,   1.2,  0,  0, 28,  0,  0, 36,  0,  0,  0,  0, 27, 33,  0, 37,  0,  0, 16,  0, 30, 42,  0, 39,  0, 29, 32,  0,  0,  0,  0,  0,  0,  0
6, 6606, 5,N3MCA,    -0.17, 3,   boost,   -0.98,  97272.00,  342.98,   -0.09,    0.11, 18.4, 3.91, 3.90, 3.91,   9.99,  -0.17,   0.15,   1.52,   0.01,  -0.06,  -0.62,   0.31,  -0.21,   0.89, 3.94, 3.92, 3.91, 0.00, 0.00, 1, 1, 12,  37.1688284, -97.7339165,   376.0, 2024,  3, 23, 21,  2, 58,        0,        0,   0,   0,   1.4,   0.7,   1.2,  0,  0, 28,  0,  0, 36,  0,  0,  0,  0, 27, 33,  0, 37,  0,  0, 16,  0, 30, 42,  0, 39,  0, 29, 32,  0,  0,  0,  0,  0,  0,  0
6, 6606, 5,N3MCA,    -0.16, 3,   boost,   -1.96,  97272.00,  342.98,   -0.09,    0.11, 18.4, 3.91, 3.90, 3.91,   9.93,  -0.07,   0.10,   1.34,   0.13,  -0.12,  -0.63,   0.33,  -0.18,   0.89, 3.94, 3.92, 3.91, 0.00, 0.00, 1, 1, 12,  37.1688284, -97.7339165,   376.0, 2024,  3, 23, 21,  2, 58,        0,        0,   0,   0,   1.4,   0.7,   1.2,  0,  0, 28,  0,  0, 36,  0,  0,  0,  0, 27, 33,  0, 37,  0,  0, 16,  0, 30, 42,  0, 39,  0, 29, 32,  0,  0,  0,  0,  0,  0,  0
6, 6606, 5,N3MCA,    -0.15, 3,   boost,    1.96,  97284.00,  341.95,   -1.12,    0.12, 18.4, 3.91, 3.90, 3.91,  10.53,  -0.22,   0.56,   1.28,  -0.24,  -0.24,  -0.62,   0.33,  -0.23,   0.89, 3.94, 3.92, 3.91, 0.00, 0.00, 1, 1, 12,  37.1688284, -97.7339165,   376.0, 2024,  3, 23, 21,  2, 58,        0,        0,   0,   0,   1.4,   0.7,   1.2,  0,  0, 28,  0,  0, 36,  0,  0,  0,  0, 27, 33,  0, 37,  0,  0, 16,  0, 30, 42,  0, 39,  0, 29, 32,  0,  0,  0,  0,  0,  0,  0
6, 6606, 5,N3MCA,    -0.14, 3,   boost,    3.43,  97282.00,  342.12,   -0.95,    0.14, 18.4, 3.91, 3.90, 3.91,  11.71,   0.14,  -0.11,   0.05,   0.07,  -0.24,  -0.62,   0.32,  -0.17,   0.89, 3.94, 3.92, 3.91, 0.00, 0.00, 1, 1, 12,  37.1688284, -97.7339165,   376.0, 2024,  3, 23, 21,  2, 58,        0,        0,   0,   0,   1.4,   0.7,   1.2,  0,  0, 28,  0,  0, 36,  0,  0,  0,  0, 27, 33,  0, 37,  0,  0, 16,  0, 30, 42,  0, 39,  0, 29, 32,  0,  0,  0,  0,  0,  0,  0
6, 6606, 5,N3MCA,    -0.13, 3,   boost,   -6.37,  97280.00,  342.29,   -0.77,    0.18, 18.4, 3.91, 3.90, 3.91,  16.91,  -0.49,  -1.50,   1.34,   0.43,   0.18,  -0.62,   0.31,  -0.23,   0.89, 3.94, 3.92, 3.91, 0.00, 0.00, 1, 1, 12,  37.1688284, -97.7339165,   376.0, 2024,  3, 23, 21,  2, 58,        0,        0,   0,   0,   1.4,   0.7,   1.2,  0,  0, 28,  0,  0, 36,  0,  0,  0,  0, 27, 33,  0, 37,  0,  0, 16,  0, 30, 42,  0, 39,  0, 29, 32,  0,  0,  0,  0,  0,  0,  0
6, 6606, 5,N3MCA,    -0.12, 3,   boost,    9.81,  97296.00,  340.92,   -2.15,    0.28, 18.4, 3.91, 3.90, 3.91,  21.39,  -3.14,   1.78,   4.88,  -0.24,  -1.71,  -0.62,   0.33,  -0.15,   0.89, 3.94, 3.92, 3.91, 0.00, 0.00, 1, 1, 12,  37.1688284, -97.7339165,   376.0, 2024,  3, 23, 21,  2, 58,        0,        0,   0,   0,   1.4,   0.7,   1.2,  0,  0, 28,  0,  0, 36,  0,  0,  0,  0, 27, 33,  0, 37,  0,  0, 16,  0, 30, 42,  0, 39,  0, 29, 32,  0,  0,  0,  0,  0,  0,  0
6, 6606, 5,N3MCA,    -0.11, 3,   boost,   23.05,  97334.00,  337.65,   -5.42,    0.44, 18.4, 3.91, 3.90, 3.91,  31.96,   1.14,   6.99,   5.91,  -7.26,  -0.24,  -0.63,   0.30,  -0.22,   0.89, 3.94, 3.92, 3.91, 0.00, 0.00, 1, 1, 12,  37.1688284, -97.7339165,   376.0, 2024,  3, 23, 21,  2, 58,        0,        0,   0,   0,   1.4,   0.7,   1.2,  0,  0, 28,  0,  0, 36,  0,  0,  0,  0, 27, 33,  0, 37,  0,  0, 16,  0, 30, 42,  0, 39,  0, 29, 32,  0,  0,  0,  0,  0,  0,  0
6, 6606, 5,N3MCA,    -0.10, 3,   boost,   30.89,  97318.00,  339.02,   -4.04,    0.67, 18.4, 3.91, 3.90, 3.91,  40.85,  -1.97,   1.05,   7.56,  -2.43,  -0.91,  -0.64,   0.31,  -0.23,   0.89, 3.94, 3.92, 3.91, 0.00, 0.00, 1, 1, 12,  37.1688284, -97.7339165,   376.0, 2024,  3, 23, 21,  2, 58,        0,        0,   0,   0,   1.4,   0.7,   1.2,  0,  0, 28,  0,  0, 36,  0,  0,  0,  0, 27, 33,  0, 37,  0,  0, 16,  0, 30, 42,  0, 39,  0, 29, 32,  0,  0,  0,  0,  0,  0,  0
6, 6606, 5,N3MCA,    -0.09, 3,   boost,   42.17,  97279.00,  342.38,   -0.69,    0.97, 18.4, 3.91, 3.90, 3.91,  51.69,   0.29,   2.16,  10.13,  -1.52,  -0.61,  -0.62,   0.30,  -0.20,   0.89, 3.94, 3.92, 3.91, 0.00, 0.00, 1, 1, 12,  37.1688284, -97.7339165,   376.0, 2024,  3, 23, 21,  2, 58,        0,        0,   0,   0,   1.4,   0.7,   1.2,  0,  0, 28,  0,  0, 36,  0,  0,  0,  0, 27, 33,  0, 37,  0,  0, 16,  0, 30, 42,  0, 39,  0, 29, 32,  0,  0,  0,  0,  0,  0,  0
6, 6606, 5,N3MCA,    -0.08, 3,   boost,   18.14,  97265.00,  343.58,    0.52,    1.33, 18.4, 3.91, 3.90, 3.91,  53.50,   9.89,  13.03,   4.63,  -5.24,   2.32,  -0.63,   0.32,  -0.21,   0.89, 3.94, 3.92, 3.91, 0.00, 0.00, 1, 1, 12,  37.1688284, -97.7339165,   376.0, 2024,  3, 23, 21,  2, 58,        0,        0,   0,   0,   1.4,   0.7,   1.2,  0,  0, 28,  0,  0, 36,  0,  0,  0,  0, 27, 33,  0, 37,  0,  0, 16,  0, 30, 42,  0, 39,  0, 29, 32,  0,  0,  0,  0,  0,  0,  0
6, 6606, 5,N3MCA,    -0.07, 3,   boost,   59.82,  97287.00,  341.69,   -1.38,    1.75, 18.4, 3.91, 3.90, 3.91,  59.69,  -5.28,  10.60,  -6.48, -18.30,  -3.42,  -0.64,   0.31,  -0.19,   0.89, 3.94, 3.92, 3.91, 0.00, 0.00, 1, 1, 12,  37.1688284, -97.7339165,   376.0, 2024,  3, 23, 21,  2, 58,        0,        0,   0,   0,   1.4,   0.7,   1.2,  0,  0, 28,  0,  0, 36,  0,  0,  0,  0, 27, 33,  0, 37,  0,  0, 16,  0, 30, 42,  0, 39,  0, 29, 32,  0,  0,  0,  0,  0,  0,  0
6, 6606, 5,N3MCA,    -0.06, 3,   boost,   49.03,  97253.00,  344.61,    1.55,    2.22, 18.4, 3.91, 3.90, 3.91,  57.77,   0.95,  -7.47,  -6.54,   3.00,  -0.12,  -0.62,   0.33,  -0.20,   0.89, 3.94, 3.92, 3.91, 0.00, 0.00, 1, 1, 12,  37.1688284, -97.7339165,   376.0, 2024,  3, 23, 21,  2, 58,        0,        0,   0,   0,   1.4,   0.7,   1.2,  0,  0, 28,  0,  0, 36,  0,  0,  0,  0, 27, 33,  0, 37,  0,  0, 16,  0, 30, 42,  0, 39,  0, 29, 32,  0,  0,  0,  0,  0,  0,  0
6, 6606, 5,N3MCA,    -0.05, 3,   boost,   44.13,  97239.00,  345.82,    2.75,    2.74, 18.4, 3.91, 3.90, 3.91,  60.90,  -3.04,   0.01,  -5.38,   0.19,  -0.67,  -0.62,   0.31,  -0.18,   0.89, 3.94, 3.92, 3.91, 0.00, 0.00, 1, 1, 12,  37.1688284, -97.7339165,   376.0, 2024,  3, 23, 21,  2, 58,        0,        0,   0,   0,   1.4,   0.7,   1.2,  0,  0, 28,  0,  0, 36,  0,  0,  0,  0, 27, 33,  0, 37,  0,  0, 16,  0, 30, 42,  0, 39,  0, 29, 32,  0,  0,  0,  0,  0,  0,  0
6, 6606, 5,N3MCA,    -0.04, 3,   boost,   76.98,  97245.00,  345.30,    2.24,    3.30, 18.4, 3.91, 3.90, 3.91,  60.90,  -3.04,   0.01,  -5.38,   0.19,  -0.67,  -0.62,   0.31,  -0.18,   0.89, 3.94, 3.92, 3.91, 0.00, 0.00, 1, 1, 12,  37.1688284, -97.7339165,   376.0, 2024,  3, 23, 21,  2, 58,        0,        0,   0,   0,   1.4,   0.7,   1.2,  0,  0, 28,  0,  0, 36,  0,  0,  0,  0, 27, 33,  0, 37,  0,  0, 16,  0, 30, 42,  0, 39,  0, 29, 32,  0,  0,  0,  0,  0,  0,  0
6, 6606, 5,N3MCA,    -0.03, 3,   boost,   63.74,  97258.00,  344.18,    1.12,    3.89, 18.4, 3.91, 3.90, 3.91,  55.09,   1.52,  -1.70,  16.47,  -3.04,   2.56,  -0.61,   0.32,  -0.16,   0.89, 3.94, 3.92, 3.91, 0.00, 0.00, 1, 1, 12,  37.1688284, -97.7339165,   376.0, 2024,  3, 23, 21,  2, 58,        0,        0,   0,   0,   1.4,   0.7,   1.2,  0,  0, 28,  0,  0, 36,  0,  0,  0,  0, 27, 33,  0, 37,  0,  0, 16,  0, 30, 42,  0, 39,  0, 29, 32,  0,  0,  0,  0,  0,  0,  0
6, 6606, 5,N3MCA,    -0.02, 3,   boost,   51.98,  97265.00,  343.58,    0.52,    4.49, 18.4, 3.91, 3.90, 3.91,  64.87,   2.34,   5.16,  20.01,  -4.88,   2.08,  -0.61,   0.30,  -0.20,   0.89, 3.94, 3.92, 3.91, 0.00, 0.00, 1, 1, 12,  37.1688284, -97.7339165,   376.0, 2024,  3, 23, 21,  2, 58,        0,        0,   0,   0,   1.4,   0.7,   1.2,  0,  0, 28,  0,  0, 36,  0,  0,  0,  0, 27, 33,  0, 37,  0,  0, 16,  0, 30, 42,  0, 39,  0, 29, 32,  0,  0,  0,  0,  0,  0,  0
6, 6606, 5,N3MCA,    -0.01, 3,   boost,   57.37,  97234.00,  346.25,    3.18,    5.08, 18.4, 3.91, 3.90, 3.91,  67.63,   1.94,  -1.94,  15.19,   1.53,  -0.18,  -0.62,   0.29,  -0.21,   0.89, 3.94, 3.92, 3.91, 0.00, 0.00, 1, 1, 12,  37.1688284, -97.7339165,   376.0, 2024,  3, 23, 21,  2, 58,        0,        0,   0,   0,   1.4,   0.7,   1.2,  0,  0, 28,  0,  0, 36,  0,  0,  0,  0, 27, 33,  0, 37,  0,  0, 16,  0, 30, 42,  0, 39,  0, 29, 32,  0,  0,  0,  0,  0,  0,  0
6, 6606, 5,N3MCA,     0.00, 3,   boost,   61.78,  97245.00,  345.30,    2.24,    5.68, 18.4, 3.91, 3.90, 3.91,  69.13,   0.88,   2.71,   5.91,  -0.24,   1.10,  -0.61,   0.30,  -0.14,   0.89, 3.94, 3.92, 3.91, 0.00, 0.00, 1, 1, 12,  37.1688284, -97.7339165,   376.0, 2024,  3, 23, 21,  2, 58,        0,        0,   0,   0,   1.4,   0.7,   1.2,  0,  0, 28,  0,  0, 36,  0,  0,  0,  0, 27, 33,  0, 37,  0,  0, 16,  0, 30, 42,  0, 39,  0, 29, 32,  0,  0,  0,  0,  0,  0,  0
6, 6606, 5,N3MCA,     0.00, 3,   boost,   61.78,  97245.00,  345.30,    2.24,    5.68, 18.4, 3.91, 3.90, 3.91,  69.13,   0.88,   2.71,   5.91,  -0.24,   1.10,  -0.61,   0.30,  -0.14,   0.89, 3.94, 3.92, 3.91, 0.00, 0.00, 1, 1, 12,  37.1688284, -97.7339165,   376.0, 2024,  3, 23, 21,  2, 58,        0,        0,   0,   0,   1.4,   0.7,   1.2,  0,  0, 28,  0,  0, 36,  0,  0,  0,  0, 27, 33,  0, 37,  0,  0, 16,  0, 30, 42,  0, 39,  0, 29, 32,  0,  0,  0,  0,  0,  0,  0
6, 6606, 5,N3MCA,     0.00, 3,   boost,   61.78,  97245.00,  345.30,    2.24,    5.68, 18.4, 3.91, 3.90, 3.91,  69.13,   0.88,   2.71,   5.91,  -0.24,   1.10,  -0.61,   0.30,  -0.14,   0.89, 3.94, 3.92, 3.91, 0.00, 0.00, 1, 1, 12,  37.1688284, -97.7339165,   376.0, 2024,  3, 23, 21,  2, 58,        0,        0,   0,   0,   1.4,   0.7,   1.2,  0,  0, 28,  0,  0, 36,  0,  0,  0,  0, 27, 33,  0, 37,  0,  0, 16,  0, 30, 42,  0, 39,  0, 29, 32,  0,  0,  0,  0,  0,  0,  0
6, 6606, 5,N3MCA,     0.00, 3,   boost,   61.78,  97245.00,  345.30,    2.24,    5.68, 18.4, 3.91, 3.90, 3.91,  69.13,   0.88,   2.71,   5.91,  -0.24,   1.10,  -0.61,   0.30,  -0.14,   0.89, 3.94, 3.92, 3.91, 0.00, 0.00, 1, 1, 12,  37.1688284, -97.7339165,   376.0, 2024,  3, 23, 21,  2, 58,        0,        0,   0,   0,   1.4,   0.7,   1.2,  0,  0, 28,  0,  0, 36,  0,  0,  0,  0, 27, 33,  0, 37,  0,  0, 16,  0, 30, 42,  0, 39,  0, 29, 32,  0,  0,  0,  0,  0,  0,  0
6, 6606, 5,N3MCA,     0.00, 3,   boost,   61.78,  97245.00,  345.30,    2.24,    5.68, 18.4, 3.91, 3.90, 3.91,  69.13,   0.88,   2.71,   5.91,  -0.24,   1.10,  -0.61,   0.30,  -0.14,   0.89, 3.94, 3.92, 3.91, 0.00, 0.00, 1, 1, 12,  37.1688284, -97.7339165,   376.0, 2024,  3, 23, 21,  2, 58,        0,        0,   0,   0,   1.4,   0.7,   1.2,  0,  0, 28,  0,  0, 36,  0,  0,  0,  0, 27, 33,  0, 37,  0,  0, 16,  0, 30, 42,  0, 39,  0, 29, 32,  0,  0,  0,  0,  0,  0,  0
6, 6606, 5,N3MCA,     0.00, 3,   boost,   61.78,  97245.00,  345.30,    2.24,    5.68, 18.4, 3.91, 3.90, 3.91,  69.13,   0.88,   2.71,   5.91,  -0.24,   1.10,  -0.61,   0.30,  -0.14,   0.89, 3.94, 3.92, 3.91, 0.00, 0.00, 1, 1, 12,  37.1688284, -97.7339165,   376.0, 2024,  3, 23, 21,  2, 58,        0,        0,   0,   0,   1.4,   0.7,   1.2,  0,  0, 28,  0,  0, 36,  0,  0,  0,  0, 27, 33,  0, 37,  0,  0, 16,  0, 30, 42,  0, 39,  0, 29, 32,  0,  0,  0,  0,  0,  0,  0
6, 6606, 5,N3MCA,     0.00, 3,   boost,   61.78,  97245.00,  345.30,    2.24,    5.68, 18.4, 3.91, 3.90, 3.91,  69.13,   0.88,   2.71,   5.91,  -0.24,   1.10,  -0.61,   0.30,  -0.14,   0.89, 3.94, 3.92, 3.91, 0.00, 0.00, 1, 1, 12,  37.1688284, -97.7339165,   376.0, 2024,  3, 23, 21,  2, 58,        0,        0,   0,   0,   1.4,   0.7,   1.2,  0,  0, 28,  0,  0, 36,  0,  0,  0,  0, 27, 33,  0, 37,  0,  0, 16,  0, 30, 42,  0, 39,  0, 29, 32,  0,  0,  0,  0,  0,  0,  0
6, 6606, 5,N3MCA,     0.00, 3,   boost,   61.78,  97245.00,  345.30,    2.24,    5.68, 18.4, 3.91, 3.90, 3.91,  69.13,   0.88,   2.71,   5.91,  -0.24,   1.10,  -0.61,   0.30,  -0.14,   0.89, 3.94, 3.92, 3.91, 0.00, 0.00, 1, 1, 12,  37.1688284, -97.7339165,   376.0, 2024,  3, 23, 21,  2, 58,        0,        0,   0,   0,   1.4,   0.7,   1.2,  0,  0, 28,  0,  0, 36,  0,  0,  0,  0, 27, 33,  0, 37,  0,  0, 16,  0, 30, 42,  0, 39,  0, 29, 32,  0,  0,  0,  0,  0,  0,  0
6, 6606, 5,N3MCA,     0.00, 3,   boost,   61.78,  97245.00,  345.30,    2.24,    5.68, 18.4, 3.91, 3.90, 3.91,  69.13,   0.88,   2.71,   5.91,  -0.24,   1.10,  -0.61,   0.30,  -0.14,   0.89, 3.94, 3.92, 3.91, 0.00, 0.00, 1, 1, 12,  37.1688284, -97.7339165,   376.0, 2024,  3, 23, 21,  2, 58,        0,        0,   0,   0,   1.4,   0.7,   1.2,  0,  0, 28,  0,  0, 36,  0,  0,  0,  0, 27, 33,  0, 37,  0,  0, 16,  0, 30, 42,  0, 39,  0, 29, 32,  0,  0,  0,  0,  0,  0,  0
6, 6606, 5,N3MCA,     0.00, 3,   boost,   61.78,  97245.00,  345.30,    2.24,    5.68, 18.4, 3.91, 3.90, 3.91,  69.13,   0.88,   2.71,   5.91,  -0.24,   1.10,  -0.61,   0.30,  -0.14,   0.89, 3.94, 3.92, 3.91, 0.00, 0.00, 1, 1, 12,  37.1688284, -97.7339165,   376.0, 2024,  3, 23, 21,  2, 58,        0,        0,   0,   0,   1.4,   0.7,   1.2,  0,  0, 28,  0,  0, 36,  0,  0,  0,  0, 27, 33,  0, 37,  0,  0, 16,  0, 30, 42,  0, 39,  0, 29, 32,  0,  0,  0,  0,  0,  0,  0
6, 6606, 5,N3MCA,     0.00, 3,   boost,   61.78,  97245.00,  345.30,    2.24,    5.68, 18.4, 3.91, 3.90, 3.91,  69.13,   0.88,   2.71,   5.91,  -0.24,   1.10,  -0.61,   0.30,  -0.14,   0.89, 3.94, 3.92, 3.91, 0.00, 0.00, 1, 1, 12,  37.1688284, -97.7339165,   376.0, 2024,  3, 23, 21,  2, 58,        0,        0,   0,   0,   1.4,   0.7,   1.2,  0,  0, 28,  0,  0, 36,  0,  0,  0,  0, 27, 33,  0, 37,  0,  0, 16,  0, 30, 42,  0, 39,  0, 29, 32,  0,  0,  0,  0,  0,  0,  0
6, 6606, 5,N3MCA,     0.00, 3,   boost,   61.78,  97245.00,  345.30,    2.24,    5.68, 18.4, 3.91, 3.90, 3.91,  69.13,   0.88,   2.71,   5.91,  -0.24,   1.10,  -0.61,   0.30,  -0.14,   0.89, 3.94, 3.92, 3.91, 0.00, 0.00, 1, 1, 12,  37.1688284, -97.7339165,   376.0, 2024,  3, 23, 21,  2, 58,        0,        0,   0,   0,   1.4,   0.7,   1.2,  0,  0, 28,  0,  0, 36,  0,  0,  0,  0, 27, 33,  0, 37,  0,  0, 16,  0, 30, 42,  0, 39,  0, 29, 32,  0,  0,  0,  0,  0,  0,  0
6, 6606, 5,N3MCA,     0.00, 3,   boost,   61.78,  97245.00,  345.30,    2.24,    5.68, 18.4, 3.91, 3.90, 3.91,  69.13,   0.88,   2.71,   5.91,  -0.24,   1.10,  -0.61,   0.30,  -0.14,   0.89, 3.94, 3.92, 3.91, 0.00, 0.00, 1, 1, 12,  37.1688284, -97.7339165,   376.0, 2024,  3, 23, 21,  2, 58,        0,        0,   0,   0,   1.4,   0.7,   1.2,  0,  0, 28,  0,  0, 36,  0,  0,  0,  0, 27, 33,  0, 37,  0,  0, 16,  0, 30, 42,  0, 39,  0, 29, 32,  0,  0,  0,  0,  0,  0,  0
6, 6606, 5,N3MCA,     0.00, 3,   boost,   61.78,  97245.00,  345.30,    2.24,    5.68, 18.4, 3.91, 3.90, 3.91,  69.13,   0.88,   2.71,   5.91,  -0.24,   1.10,  -0.61,   0.30,  -0.14,   0.89, 3.94, 3.92, 3.91, 0.00, 0.00, 1, 1, 12,  37.1688284, -97.7339165,   376.0, 2024,  3, 23, 21,  2, 58,        0,        0,   0,   0,   1.4,   0.7,   1.2,  0,  0, 28,  0,  0, 36,  0,  0,  0,  0, 27, 33,  0, 37,  0,  0, 16,  0, 30, 42,  0, 39,  0, 29, 32,  0,  0,  0,  0,  0,  0,  0
6, 6606, 5,N3MCA,     0.00, 3,   boost,   61.78,  97245.00,  345.30,    2.24,    5.68, 18.4, 3.91, 3.90, 3.91,  69.13,   0.88,   2.71,   5.91,  -0.24,   1.10,  -0.61,   0.30,  -0.14,   0.89, 3.94, 3.92, 3.91, 0.00, 0.00, 1, 1, 12,  37.1688284, -97.7339165,   376.0, 2024,  3, 23, 21,  2, 58,        0,        0,   0,   0,   1.4,   0.7,   1.2,  0,  0, 28,  0,  0, 36,  0,  0,  0,  0, 27, 33,  0, 37,  0,  0, 16,  0, 30, 42,  0, 39,  0, 29, 32,  0,  0,  0,  0,  0,  0,  0
6, 6606, 5,N3MCA,     0.00, 3,   boost,   61.78,  97245.00,  345.30,    2.24,    5.68, 18.4, 3.91, 3.90, 3.91,  69.13,   0.88,   2.71,   5.91,  -0.24,   1.10,  -0.61,   0.30,  -0.14,   0.89, 3.94, 3.92, 3.91, 0.00, 0.00, 1, 1, 12,  37.1688284, -97.7339165,   376.0, 2024,  3, 23, 21,  2, 58,        0,        0,   0,   0,   1.4,   0.7,   1.2,  0,  0, 28,  0,  0, 36,  0,  0,  0,  0, 27, 33,  0, 37,  0,  0, 16,  0, 30, 42,  0, 39,  0, 29, 32,  0,  0,  0,  0,  0,  0,  0
6, 6606, 5,N3MCA,     0.00, 3,   boost,   61.78,  97245.00,  345.30,    2.24,    5.68, 18.4, 3.91, 3.90, 3.91,  69.13,   0.88,   2.71,   5.91,  -0.24,   1.10,  -0.61,   0.30,  -0.14,   0.88, 3.94, 3.92, 3.91, 0.00, 0.00, 1, 1, 12,  37.1688284, -97.7339165,   376.0, 2024,  3, 23, 21,  2, 58,        0,        0,   0,   0,   1.4,   0.7,   1.2,  0,  0, 28,  0,  0, 36,  0,  0,  0,  0, 27, 33,  0, 37,  0,  0, 16,  0, 30, 42,  0, 39,  0, 29, 32,  0,  0,  0,  0,  0,  0,  0
6, 6606, 5,N3MCA,     0.00, 3,   boost,   61.78,  97245.00,  345.30,    2.24,    5.68, 18.4, 3.91, 3.90, 3.91,  69.13,   0.88,   2.71,   5.91,  -0.24,   1.10,  -0.61,   0.30,  -0.14,   0.88, 3.94, 3.92, 3.91, 0.00, 0.00, 1, 1, 12,  37.1688284, -97.7339165,   376.0, 2024,  3, 23, 21,  2, 58,        0,        0,   0,   0,   1.4,   0.7,   1.2,  0,  0, 28,  0,  0, 36,  0,  0,  0,  0, 27, 33,  0, 37,  0,  0, 16,  0, 30, 42,  0, 39,  0, 29, 32,  0,  0,  0,  0,  0,  0,  0
6, 6606, 5,N3MCA,     0.00, 3,   boost,   61.78,  97245.00,  345.30,    2.24,    5.68, 18.4, 3.91, 3.90, 3.91,  69.13,   0.88,   2.71,   5.91,  -0.24,   1.10,  -0.61,   0.30,  -0.14,   0.88, 3.94, 3.92, 3.91, 0.00, 0.00, 1, 1, 12,  37.1688284, -97.7339165,   376.0, 2024,  3, 23, 21,  2, 58,        0,        0,   0,   0,   1.4,   0.7,   1.2,  0,  0, 28,  0,  0, 36,  0,  0,  0,  0, 27, 33,  0, 37,  0,  0, 16,  0, 30, 42,  0, 39,  0, 29, 32,  0,  0,  0,  0,  0,  0,  0
6, 6606, 5,N3MCA,     0.00, 3,   boost,   61.78,  97245.00,  345.30,    2.24,    5.68, 18.4, 3.91, 3.90, 3.91,  69.13,   0.88,   2.71,   5.91,  -0.24,   1.10,  -0.61,   0.30,  -0.14,   0.89, 3.94, 3.92, 3.91, 0.00, 0.00, 1, 1, 12,  37.1688284, -97.7339165,   376.0, 2024,  3, 23, 21,  2, 58,        0,        0,   0,   0,   1.4,   0.7,   1.2,  0,  0, 28,  0,  0, 36,  0,  0,  0,  0, 27, 33,  0, 37,  0,  0, 16,  0, 30, 42,  0, 39,  0, 29, 32,  0,  0,  0,  0,  0,  0,  0
6, 6606, 5,N3MCA,     0.00, 3,   boost,   61.78,  97245.00,  345.30,    2.24,    5.68, 18.4, 3.91, 3.90, 3.91,  69.13,   0.88,   2.71,   5.91,  -0.24,   1.10,  -0.61,   0.30,  -0.14,   0.89, 3.94, 3.92, 3.91, 0.00, 0.00, 1, 1, 12,  37.1688284, -97.7339165,   376.0, 2024,  3, 23, 21,  2, 58,        0,        0,   0,   0,   1.4,   0.7,   1.2,  0,  0, 28,  0,  0, 36,  0,  0,  0,  0, 27, 33,  0, 37,  0,  0, 16,  0, 30, 42,  0, 39,  0, 29, 32,  0,  0,  0,  0,  0,  0,  0
6, 6606, 5,N3MCA,     0.00, 3,   boost,   61.78,  97245.00,  345.30,    2.24,    5.68, 18.4, 3.91, 3.90, 3.91,  69.13,   0.88,   2.71,   5.91,  -0.24,   1.10,  -0.61,   0.30,  -0.14,   0.88, 3.94, 3.92, 3.91, 0.00, 0.00, 1, 1, 12,  37.1688284, -97.7339165,   376.0, 2024,  3, 23, 21,  2, 58,        0,        0,   0,   0,   1.4,   0.7,   1.2,  0,  0, 28,  0,  0, 36,  0,  0,  0,  0, 27, 33,  0, 37,  0,  0, 16,  0, 30, 42,  0, 39,  0, 29, 32,  0,  0,  0,  0,  0,  0,  0
6, 6606, 5,N3MCA,     0.00, 3,   boost,   61.78,  97245.00,  345.30,    2.24,    5.68, 18.4, 3.91, 3.90, 3.91,  69.13,   0.88,   2.71,   5.91,  -0.24,   1.10,  -0.61,   0.30,  -0.14,   0.90, 3.94, 3.92, 3.91, 0.00, 0.00, 1, 1, 12,  37.1688284, -97.7339165,   376.0, 2024,  3, 23, 21,  2, 58,        0,        0,   0,   0,   1.4,   0.7,   1.2,  0,  0, 28,  0,  0, 36,  0,  0,  0,  0, 27, 33,  0, 37,  0,  0, 16,  0, 30, 42,  0, 39,  0, 29, 32,  0,  0,  0,  0,  0,  0,  0
6, 6606, 5,N3MCA,     0.00, 3,   boost,   61.78,  97245.00,  345.30,    2.24,    5.68, 18.4, 3.91, 3.90, 3.91,  69.13,   0.88,   2.71,   5.91,  -0.24,   1.10,  -0.61,   0.30,  -0.14,   0.96, 3.94, 3.92, 3.91, 0.00, 0.00, 1, 1, 12,  37.1688284, -97.7339165,   376.0, 2024,  3, 23, 21,  2, 58,        0,        0,   0,   0,   1.4,   0.7,   1.2,  0,  0, 28,  0,  0, 36,  0,  0,  0,  0, 27, 33,  0, 37,  0,  0, 16,  0, 30, 42,  0, 39,  0, 29, 32,  0,  0,  0,  0,  0,  0,  0
6, 6606, 5,N3MCA,     0.00, 3,   boost,   61.78,  97245.00,  345.30,    2.24,    5.68, 18.4, 3.91, 3.90, 3.91,  69.13,   0.88,   2.71,   5.91,  -0.24,   1.10,  -0.61,   0.30,  -0.14,   0.98, 3.94, 3.92, 3.91, 0.00, 0.00, 1, 1, 12,  37.1688284, -97.7339165,   376.0, 2024,  3, 23, 21,  2, 58,        0,        0,   0,   0,   1.4,   0.7,   1.2,  0,  0, 28,  0,  0, 36,  0,  0,  0,  0, 27, 33,  0, 37,  0,  0, 16,  0, 30, 42,  0, 39,  0, 29, 32,  0,  0,  0,  0,  0,  0,  0
6, 6606, 5,N3MCA,     0.00, 3,   boost,   61.78,  97245.00,  345.30,    2.24,    5.68, 18.4, 3.91, 3.90, 3.91,  69.13,   0.88,   2.71,   5.91,  -0.24,   1.10,  -0.61,   0.30,  -0.14,   1.00, 3.94, 3.92, 3.91, 0.00, 0.00, 1, 1, 12,  37.1688284, -97.7339165,   376.0, 2024,  3, 23, 21,  2, 58,        0,        0,   0,   0,   1.4,   0.7,   1.2,  0,  0, 28,  0,  0, 36,  0,  0,  0,  0, 27, 33,  0, 37,  0,  0, 16,  0, 30, 42,  0, 39,  0, 29, 32,  0,  0,  0,  0,  0,  0,  0
6, 6606, 5,N3MCA,     0.00, 3,   boost,   61.78,  97245.00,  345.30,    2.24,    5.68, 18.4, 3.91, 3.90, 3.91,  69.13,   0.88,   2.71,   5.91,  -0.24,   1.10,  -0.61,   0.30,  -0.14,   1.03, 3.94, 3.92, 3.91, 0.00, 0.00, 1, 1, 12,  37.1688284, -97.7339165,   376.0, 2024,  3, 23, 21,  2, 58,        0,        0,   0,   0,   1.4,   0.7,   1.2,  0,  0, 28,  0,  0, 36,  0,  0,  0,  0, 27, 33,  0, 37,  0,  0, 16,  0, 30, 42,  0, 39,  0, 29, 32,  0,  0,  0,  0,  0,  0,  0
6, 6606, 5,N3MCA,     0.00, 3,   boost,   61.78,  97245.00,  345.30,    2.24,    5.68, 18.4, 3.91, 3.90, 3.91,  69.13,   0.88,   2.71,   5.91,  -0.24,   1.10,  -0.61,   0.30,  -0.14,   1.20, 3.94, 3.92, 3.91, 0.00, 0.00, 1, 1, 12,  37.1688284, -97.7339165,   376.0, 2024,  3, 23, 21,  2, 58,        0,        0,   0,   0,   1.4,   0.7,   1.2,  0,  0, 28,  0,  0, 36,  0,  0,  0,  0, 27, 33,  0, 37,  0,  0, 16,  0, 30, 42,  0, 39,  0, 29, 32,  0,  0,  0,  0,  0,  0,  0
6, 6606, 5,N3MCA,     0.00, 3,   boost,   61.78,  97245.00,  345.30,    2.24,    5.68, 18.4, 3.91, 3.90, 3.91,  69.13,   0.88,   2.71,   5.91,  -0.24,   1.10,  -0.61,   0.30,  -0.14,   1.18, 3.94, 3.92, 3.91, 0.00, 0.00, 1, 1, 12,  37.1688284, -97.7339165,   376.0, 2024,  3, 23, 21,  2, 58,        0,        0,   0,   0,   1.4,   0.7,   1.2,  0,  0, 28,  0,  0, 36,  0,  0,  0,  0, 27, 33,  0, 37,  0,  0, 16,  0, 30, 42,  0, 39,  0, 29, 32,  0,  0,  0,  0,  0,  0,  0
6, 6606, 5,N3MCA,     0.00, 3,   boost,   61.78,  97245.00,  345.30,    2.24,    5.68, 18.4, 3.91, 3.90, 3.91,  69.13,   0.88,   2.71,   5.91,  -0.24,   1.10,  -0.61,   0.30,  -0.14,   1.18, 3.94, 3.92, 3.91, 0.00, 0.00, 1, 1, 12,  37.1688284, -97.7339165,   376.0, 2024,  3, 23, 21,  2, 58,        0,        0,   0,   0,   1.4,   0.7,   1.2,  0,  0, 28,  0,  0, 36,  0,  0,  0,  0, 27, 33,  0, 37,  0,  0, 16,  0, 30, 42,  0, 39,  0, 29, 32,  0,  0,  0,  0,  0,  0,  0
6, 6606, 5,N3MCA,     0.00, 3,   boost,   61.78,  97245.00,  345.30,    2.24,    5.68, 18.4, 3.91, 3.90, 3.91,  69.13,   0.88,   2.71,   5.91,  -0.24,   1.10,  -0.61,   0.30,  -0.14,   1.18, 3.94, 3.92, 3.91, 0.00, 0.00, 1, 1, 12,  37.1688284, -97.7339165,   376.0, 2024,  3, 23, 21,  2, 58,        0,        0,   0,   0,   1.4,   0.7,   1.2,  0,  0, 28,  0,  0, 36,  0,  0,  0,  0, 27, 33,  0, 37,  0,  0, 16,  0, 30, 42,  0, 39,  0, 29, 32,  0,  0,  0,  0,  0,  0,  0
6, 6606, 5,N3MCA,     0.00, 3,   boost,   61.78,  97245.00,  345.30,    2.24,    5.68, 18.4, 3.91, 3.90, 3.91,  69.13,   0.88,   2.71,   5.91,  -0.24,   1.10,  -0.61,   0.30,  -0.14,   1.20, 3.94, 3.92, 3.91, 0.00, 0.00, 1, 1, 12,  37.1688284, -97.7339165,   376.0, 2024,  3, 23, 21,  2, 58,        0,        0,   0,   0,   1.4,   0.7,   1.2,  0,  0, 28,  0,  0, 36,  0,  0,  0,  0, 27, 33,  0, 37,  0,  0, 16,  0, 30, 42,  0, 39,  0, 29, 32,  0,  0,  0,  0,  0,  0,  0
6, 6606, 5,N3MCA,     0.00, 3,   boost,   61.78,  97245.00,  345.30,    2.24,    5.68, 18.4, 3.91, 3.90, 3.91,  69.13,   0.88,   2.71,   5.91,  -0.24,   1.10,  -0.61,   0.30,  -0.14,   1.23, 3.94, 3.92, 3.91, 0.00, 0.00, 1, 1, 12,  37.1688284, -97.7339165,   376.0, 2024,  3, 23, 21,  2, 58,        0,        0,   0,   0,   1.4,   0.7,   1.2,  0,  0, 28,  0,  0, 36,  0,  0,  0,  0, 27, 33,  0, 37,  0,  0, 16,  0, 30, 42,  0, 39,  0, 29, 32,  0,  0,  0,  0,  0,  0,  0
6, 6606, 5,N3MCA,     0.00, 3,   boost,   61.78,  97245.00,  345.30,    2.24,    5.68, 18.4, 3.91, 3.90, 3.91,  69.13,   0.88,   2.71,   5.91,  -0.24,   1.10,  -0.61,   0.30,  -0.14,   1.22, 3.94, 3.92, 3.91, 0.00, 0.00, 1, 1, 12,  37.1688284, -97.7339165,   376.0, 2024,  3, 23, 21,  2, 58,        0,        0,   0,   0,   1.4,   0.7,   1.2,  0,  0, 28,  0,  0, 36,  0,  0,  0,  0, 27, 33,  0, 37,  0,  0, 16,  0, 30, 42,  0, 39,  0, 29, 32,  0,  0,  0,  0,  0,  0,  0
6, 6606, 5,N3MCA,     0.00, 3,   boost,   61.78,  97245.00,  345.30,    2.24,    5.68, 18.4, 3.91, 3.90, 3.91,  69.13,   0.88,   2.71,   5.91,  -0.24,   1.10,  -0.61,   0.30,  -0.14,   1.21, 3.94, 3.92, 3.91, 0.00, 0.00, 1, 1, 12,  37.1688284, -97.7339165,   376.0, 2024,  3, 23, 21,  2, 58,        0,        0,   0,   0,   1.4,   0.7,   1.2,  0,  0, 28,  0,  0, 36,  0,  0,  0,  0, 27, 33,  0, 37,  0,  0, 16,  0, 30, 42,  0, 39,  0, 29, 32,  0,  0,  0,  0,  0,  0,  0
6, 6606, 5,N3MCA,     0.01, 3,   boost,   61.78,  97267.00,  343.41,    0.34,    6.28, 18.4, 3.91, 3.90, 3.91,  69.13,   0.88,   2.71,   5.91,  -0.24,   1.10,  -0.61,   0.30,  -0.14,   1.21, 3.94, 3.92, 3.91, 0.00, 0.00, 1, 1, 12,  37.1688284, -97.7339165,   376.0, 2024,  3, 23, 21,  2, 58,        0,        0,   0,   0,   1.4,   0.7,   1.2,  0,  0, 28,  0,  0, 36,  0,  0,  0,  0, 27, 33,  0, 37,  0,  0, 16,  0, 30, 42,  0, 39,  0, 29, 32,  0,  0,  0,  0,  0,  0,  0
6, 6606, 5,N3MCA,     0.01, 3,   boost,   61.78,  97267.00,  343.41,    0.34,    6.28, 18.4, 3.91, 3.90, 3.91,  69.13,   0.88,   2.71,   5.91,  -0.24,   1.10,  -0.61,   0.30,  -0.14,   1.21, 3.94, 3.92, 3.91, 0.00, 0.00, 1, 1, 12,  37.1688284, -97.7339165,   376.0, 2024,  3, 23, 21,  2, 58,        0,        0,   0,   0,   1.4,   0.7,   1.2,  0,  0, 28,  0,  0, 36,  0,  0,  0,  0, 27, 33,  0, 37,  0,  0, 16,  0, 30, 42,  0, 39,  0, 29, 32,  0,  0,  0,  0,  0,  0,  0
6, 6606, 5,N3MCA,     0.02, 3,   boost,   59.82,  97248.00,  345.05,    1.98,    6.88, 18.4, 3.91, 3.90, 3.92,  70.82,  -0.99,   1.72,   2.80,   3.55,   0.31,  -0.59,   0.32,  -0.21,   1.18, 3.93, 3.92, 3.91, 0.00, 0.00, 1, 1, 12,  37.1688284, -97.7339165,   376.0, 2024,  3, 23, 21,  2, 58,        0,        0,   0,   0,   1.4,   0.7,   1.2,  0,  0, 28,  0,  0, 36,  0,  0,  0,  0, 27, 33,  0, 37,  0,  0, 16,  0, 30, 42,  0, 39,  0, 29, 32,  0,  0,  0,  0,  0,  0,  0
6, 6606, 5,N3MCA,     0.02, 3,   boost,   59.82,  97248.00,  345.05,    1.98,    6.88, 18.4, 3.91, 3.90, 3.92,  70.82,  -0.99,   1.72,   2.80,   3.55,   0.31,  -0.59,   0.32,  -0.21,   1.18, 3.93, 3.92, 3.91, 0.00, 0.00, 1, 1, 12,  37.1688284, -97.7339165,   376.0, 2024,  3, 23, 21,  2, 58,        0,        0,   0,   0,   1.4,   0.7,   1.2,  0,  0, 28,  0,  0, 36,  0,  0,  0,  0, 27, 33,  0, 37,  0,  0, 16,  0, 30, 42,  0, 39,  0, 29, 32,  0,  0,  0,  0,  0,  0,  0
6, 6606, 5,N3MCA,     0.03, 3,   boost,   59.82,  97255.00,  344.44,    1.38,    7.49, 18.4, 3.91, 3.90, 3.92,  71.61,   0.43,   1.86,   4.75,  -3.29,   0.55,  -0.59,   0.30,  -0.19,   1.20, 3.93, 3.92, 3.91, 0.00, 0.00, 1, 1, 12,  37.1688284, -97.7339165,   376.0, 2024,  3, 23, 21,  2, 58,        0,        0,   0,   0,   1.4,   0.7,   1.2,  0,  0, 28,  0,  0, 36,  0,  0,  0,  0, 27, 33,  0, 37,  0,  0, 16,  0, 30, 42,  0, 39,  0, 29, 32,  0,  0,  0,  0,  0,  0,  0
6, 6606, 5,N3MCA,     0.04, 3,   boost,   61.78,  97236.00,  346.08,    3.01,    8.09, 18.4, 3.91, 3.90, 3.92,  71.58,   0.19,  -0.65,  11.71,   0.07,   0.61,  -0.60,   0.33,  -0.24,   1.20, 3.93, 3.92, 3.91, 0.00, 0.00, 1, 1, 12,  37.1688284, -97.7339165,   376.0, 2024,  3, 23, 21,  2, 58,        0,        0,   0,   0,   1.4,   0.7,   1.2,  0,  0, 28,  0,  0, 36,  0,  0,  0,  0, 27, 33,  0, 37,  0,  0, 16,  0, 30, 42,  0, 39,  0, 29, 32,  0,  0,  0,  0,  0,  0,  0
6, 6606, 5,N3MCA,     0.05, 3,   boost,   61.78,  97245.00,  345.30,    2.24,    8.69, 18.4, 3.91, 3.90, 3.92,  72.00,  -0.68,   2.94,  15.19,  -0.66,   0.61,  -0.61,   0.33,  -0.27,   1.20, 3.93, 3.92, 3.91, 0.00, 0.00, 1, 1, 12,  37.1688284, -97.7339165,   376.0, 2024,  3, 23, 21,  2, 58,        0,        0,   0,   0,   1.4,   0.7,   1.2,  0,  0, 28,  0,  0, 36,  0,  0,  0,  0, 27, 33,  0, 37,  0,  0, 16,  0, 30, 42,  0, 39,  0, 29, 32,  0,  0,  0,  0,  0,  0,  0
6, 6606, 5,N3MCA,     0.06, 3,   boost,   68.16,  97217.00,  347.71,    4.65,    9.27, 18.4, 3.91, 3.90, 3.92,  77.84,   0.85,   1.36,  14.89,   3.97,   0.12,  -0.61,   0.31,  -0.27,   1.17, 3.93, 3.92, 3.91, 0.00, 0.00, 1, 1, 12,  37.1688284, -97.7339165,   376.0, 2024,  3, 23, 21,  2, 58,        0,        0,   0,   0,   1.4,   0.7,   1.2,  0,  0, 28,  0,  0, 36,  0,  0,  0,  0, 27, 33,  0, 37,  0,  0, 16,  0, 30, 42,  0, 39,  0, 29, 32,  0,  0,  0,  0,  0,  0,  0
6, 6606, 5,N3MCA,     0.07, 3,   boost,   34.81,  97255.00,  344.44,    1.38,    9.83, 18.4, 3.91, 3.90, 3.92,  68.66,  -1.33,   6.08,  11.96,  -2.07,  -0.61,  -0.61,   0.31,  -0.24,   1.19, 3.93, 3.92, 3.91, 0.00, 0.00, 1, 1, 12,  37.1688284, -97.7339165,   376.0, 2024,  3, 23, 21,  2, 58,        0,        0,   0,   0,   1.4,   0.7,   1.2,  0,  0, 28,  0,  0, 36,  0,  0,  0,  0, 27, 33,  0, 37,  0,  0, 16,  0, 30, 42,  0, 39,  0, 29, 32,  0,  0,  0,  0,  0,  0,  0
6, 6606, 5,N3MCA,     0.08, 3,   boost,   54.92,  97262.00,  343.84,    0.77,   10.40, 18.4, 3.91, 3.90, 3.92,  79.96,  -1.35,   3.62,   1.95,  -8.29,  -2.14,  -0.62,   0.31,  -0.24,   1.27, 3.93, 3.92, 3.91, 0.00, 0.00, 1, 1, 12,  37.1688284, -97.7339165,   376.0, 2024,  3, 23, 21,  2, 58,        0,        0,   0,   0,   1.4,   0.7,   1.2,  0,  0, 28,  0,  0, 36,  0,  0,  0,  0, 27, 33,  0, 37,  0,  0, 16,  0, 30, 42,  0, 39,  0, 29, 32,  0,  0,  0,  0,  0,  0,  0
6, 6606, 5,N3MCA,     0.09, 3,   boost,   60.31,  97260.00,  344.01,    0.95,   10.98, 18.4, 3.91, 3.90, 3.92,  73.97,   0.79,  -2.84,   1.82,   5.38,   0.37,  -0.65,   0.32,  -0.20,   1.22, 3.93, 3.92, 3.91, 0.00, 0.00, 1, 1, 12,  37.1688284, -97.7339165,   376.0, 2024,  3, 23, 21,  2, 58,        0,        0,   0,   0,   1.4,   0.7,   1.2,  0,  0, 28,  0,  0, 36,  0,  0,  0,  0, 27, 33,  0, 37,  0,  0, 16,  0, 30, 42,  0, 39,  0, 29, 32,  0,  0,  0,  0,  0,  0,  0
6, 6606, 5,N3MCA,     0.10, 3,   boost,   65.70,  97233.00,  346.34,    3.27,   11.58, 18.4, 3.91, 3.90, 3.92,  76.59,  -1.30,   0.64,   2.80,   4.95,   0.43,  -0.62,   0.34,  -0.24,   1.18, 3.93, 3.92, 3.91, 0.00, 0.00, 1, 1, 12,  37.1688284, -97.7339165,   376.0, 2024,  3, 23, 21,  2, 58,        0,        0,   0,   0,   1.4,   0.7,   1.2,  0,  0, 28,  0,  0, 36,  0,  0,  0,  0, 27, 33,  0, 37,  0,  0, 16,  0, 30, 42,  0, 39,  0, 29, 32,  0,  0,  0,  0,  0,  0,  0
6, 6606, 5,N3MCA,     0.11, 3,   boost,   68.65,  97252.00,  344.70,    1.63,   12.21, 18.4, 3.91, 3.90, 3.92,  76.59,  -1.30,   0.64,   2.80,   4.95,   0.43,  -0.62,   0.34,  -0.24,   1.13, 3.93, 3.92, 3.91, 0.00, 0.00, 1, 1, 12,  37.1688284, -97.7339165,   376.0, 2024,  3, 23, 21,  2, 58,        0,        0,   0,   0,   1.4,   0.7,   1.2,  0,  0, 28,  0,  0, 36,  0,  0,  0,  0, 27, 33,  0, 37,  0,  0, 16,  0, 30, 42,  0, 39,  0, 29, 32,  0,  0,  0,  0,  0,  0,  0
6, 6606, 5,N3MCA,     0.12, 3,   boost,   64.23,  97212.00,  348.14,    5.08,   12.86, 18.4, 3.91, 3.90, 3.92,  78.15,  -1.17,   5.56,   2.56,   0.19,  -0.18,  -0.62,   0.33,  -0.23,   1.13, 3.93, 3.92, 3.91, 0.00, 0.00, 1, 1, 12,  37.1688284, -97.7339165,   376.0, 2024,  3, 23, 21,  2, 58,        0,        0,   0,   0,   1.4,   0.7,   1.2,  0,  0, 28,  0,  0, 36,  0,  0,  0,  0, 27, 33,  0, 37,  0,  0, 16,  0, 30, 42,  0, 39,  0, 29, 32,  0,  0,  0,  0,  0,  0,  0
6, 6606, 5,N3MCA,     0.13, 3,   boost,   67.67,  97236.00,  346.08,    3.01,   13.53, 18.4, 3.91, 3.90, 3.92,  76.36,  -0.28,   1.32,   3.47,   3.06,   0.00,  -0.63,   0.30,  -0.20,   1.10, 3.93, 3.92, 3.91, 0.00, 0.00, 1, 1, 12,  37.1688284, -97.7339165,   376.0, 2024,  3, 23, 21,  2, 58,        0,        0,   0,   0,   1.4,   0.7,   1.2,  0,  0, 28,  0,  0, 36,  0,  0,  0,  0, 27, 33,  0, 37,  0,  0, 16,  0, 30, 42,  0, 39,  0, 29, 32,  0,  0,  0,  0,  0,  0,  0
6, 6606, 5,N3MCA,     0.14, 3,   boost,   64.23,  97242.00,  345.56,    2.50,   14.20, 18.4, 3.91, 3.90, 3.92,  76.75,  -2.10,   3.62,   2.98,   2.33,   0.25,  -0.63,   0.32,  -0.20,   1.08, 3.93, 3.92, 3.91, 0.00, 0.00, 1, 1, 12,  37.1688284, -97.7339165,   376.0, 2024,  3, 23, 21,  2, 58,        0,        0,   0,   0,   1.4,   0.7,   1.2,  0,  0, 28,  0,  0, 36,  0,  0,  0,  0, 27, 33,  0, 37,  0,  0, 16,  0, 30, 42,  0, 39,  0, 29, 32,  0,  0,  0,  0,  0,  0,  0
6, 6606, 5,N3MCA,     0.15, 3,   boost,   71.10,  97209.00,  348.40,    5.34,   14.87, 18.4, 3.91, 3.90, 3.92,  76.84,  -0.79,   3.37,   4.39,   2.51,   0.00,  -0.65,   0.32,  -0.14,   1.06, 3.93, 3.92, 3.91, 0.00, 0.00, 1, 1, 12,  37.1688284, -97.7339165,   376.0, 2024,  3, 23, 21,  2, 58,        0,        0,   0,   0,   1.4,   0.7,   1.2,  0,  0, 28,  0,  0, 36,  0,  0,  0,  0, 27, 33,  0, 37,  0,  0, 16,  0, 30, 42,  0, 39,  0, 29, 32,  0,  0,  0,  0,  0,  0,  0
6, 6606, 5,N3MCA,     0.16, 3,   boost,   67.67,  97236.00,  346.08,    3.01,   15.55, 18.4, 3.91, 3.90, 3.92,  76.71,  -0.44,   2.85,   1.34,   1.90,   0.06,  -0.64,   0.33,  -0.16,   1.04, 3.93, 3.92, 3.91, 0.00, 0.00, 1, 1, 12,  37.1688284, -97.7339165,   376.0, 2024,  3, 23, 21,  2, 58,        0,        0,   0,   0,   1.4,   0.7,   1.2,  0,  0, 28,  0,  0, 36,  0,  0,  0,  0, 27, 33,  0, 37,  0,  0, 16,  0, 30, 42,  0, 39,  0, 29, 32,  0,  0,  0,  0,  0,  0,  0
6, 6606, 5,N3MCA,     0.17, 3,   boost,   67.67,  97196.00,  349.52,    6.46,   16.23, 18.4, 3.91, 3.90, 3.92,  77.24,  -0.86,   1.96,  -3.49,   2.63,  -0.18,  -0.63,   0.32,  -0.16,   1.02, 3.93, 3.92, 3.91, 0.00, 0.00, 1, 1, 12,  37.1688284, -97.7339165,   376.0, 2024,  3, 23, 21,  2, 58,        0,        0,   0,   0,   1.4,   0.7,   1.2,  0,  0, 28,  0,  0, 36,  0,  0,  0,  0, 27, 33,  0, 37,  0,  0, 16,  0, 30, 42,  0, 39,  0, 29, 32,  0,  0,  0,  0,  0,  0,  0
6, 6606, 5,N3MCA,     0.18, 3,   boost,   69.63,  97201.00,  349.09,    6.02,   16.92, 18.4, 3.91, 3.90, 3.92,  76.58,  -0.86,   1.74,  -8.43,   2.45,   0.25,  -0.64,   0.33,  -0.16,   1.00, 3.93, 3.92, 3.91, 0.00, 0.00, 1, 1, 12,  37.1688284, -97.7339165,   376.0, 2024,  3, 23, 21,  2, 58,        0,        0,   0,   0,   1.4,   0.7,   1.2,  0,  0, 28,  0,  0, 36,  0,  0,  0,  0, 27, 33,  0, 37,  0,  0, 16,  0, 30, 42,  0, 39,  0, 29, 32,  0,  0,  0,  0,  0,  0,  0
6, 6606, 5,N3MCA,     0.19, 3,   boost,   66.19,  97232.00,  346.42,    3.36,   17.61, 18.4, 3.91, 3.90, 3.92,  77.48,  -5.52,   0.39,  -6.11,   3.06,  -0.79,  -0.62,   0.32,  -0.13,   0.98, 3.93, 3.92, 3.91, 0.00, 0.00, 1, 1, 12,  37.1688284, -97.7339165,   376.0, 2024,  3, 23, 21,  2, 58,        0,        0,   0,   0,   1.4,   0.7,   1.2,  0,  0, 28,  0,  0, 36,  0,  0,  0,  0, 27, 33,  0, 37,  0,  0, 16,  0, 30, 42,  0, 39,  0, 29, 32,  0,  0,  0,  0,  0,  0,  0
6, 6606, 5,N3MCA,     0.20, 3,   boost,   74.53,  97234.00,  346.25,    3.18,   18.30, 18.4, 3.91, 3.90, 3.92,  78.55,  -2.89,   3.44,  -0.98,   1.47,  -0.37,  -0.62,   0.32,  -0.14,   0.97, 3.93, 3.92, 3.91, 0.00, 0.00, 1, 1, 12,  37.1688284, -97.7339165,   376.0, 2024,  3, 23, 21,  2, 58,        0,        0,   0,   0,   1.4,   0.7,   1.2,  0,  0, 28,  0,  0, 36,  0,  0,  0,  0, 27, 33,  0, 37,  0,  0, 16,  0, 30, 42,  0, 39,  0, 29, 32,  0,  0,  0,  0,  0,  0,  0
6, 6606, 5,N3MCA,     0.21, 3,   boost,   68.16,  97231.00,  346.51,    3.44,   19.00, 18.4, 3.91, 3.90, 3.92,  78.69,  -1.02,   2.72,  -0.31,   0.07,  -0.67,  -0.60,   0.33,  -0.15,   0.97, 3.93, 3.92, 3.91, 0.00, 0.00, 1, 1, 12,  37.1688284, -97.7339165,   376.0, 2024,  3, 23, 21,  2, 58,        0,        0,   0,   0,   1.4,   0.7,   1.2,  0,  0, 28,  0,  0, 36,  0,  0,  0,  0, 27, 33,  0, 37,  0,  0, 16,  0, 30, 42,  0, 39,  0, 29, 32,  0,  0,  0,  0,  0,  0,  0
6, 6606, 5,N3MCA,     0.22, 3,   boost,   71.10,  97220.00,  347.46,    4.39,   19.69, 18.4, 3.91, 3.90, 3.92,  78.69,  -1.02,   2.72,  -0.31,   0.07,  -0.67,  -0.60,   0.33,  -0.15,   0.98, 3.93, 3.92, 3.91, 0.00, 0.00, 1, 1, 12,  37.1688284, -97.7339165,   376.0, 2024,  3, 23, 21,  2, 58,        0,        0,   0,   0,   1.4,   0.7,   1.2,  0,  0, 28,  0,  0, 36,  0,  0,  0,  0, 27, 33,  0, 37,  0,  0, 16,  0, 30, 42,  0, 39,  0, 29, 32,  0,  0,  0,  0,  0,  0,  0
6, 6606, 5,N3MCA,     0.23, 3,   boost,   66.19,  97217.00,  347.71,    4.65,   20.38, 18.4, 3.91, 3.90, 3.92,  78.07,  -5.05,   1.77, -10.50,  -0.91,  -1.04,  -0.60,   0.32,  -0.12,   0.99, 3.93, 3.92, 3.91, 0.00, 0.00, 1, 1, 12,  37.1688284, -97.7339165,   376.0, 2024,  3, 23, 21,  2, 58,        0,        0,   0,   0,   1.4,   0.7,   1.2,  0,  0, 28,  0,  0, 36,  0,  0,  0,  0, 27, 33,  0, 37,  0,  0, 16,  0, 30, 42,  0, 39,  0, 29, 32,  0,  0,  0,  0,  0,  0,  0
6, 6606, 5,N3MCA,     0.24, 3,   boost,   68.16,  97209.00,  348.40,    5.34,   21.06, 18.4, 3.91, 3.90, 3.92,  75.28,  -1.70,  -1.19, -15.75,   6.48,  -0.30,  -0.59,   0.32,  -0.15,   0.94, 3.93, 3.92, 3.91, 0.00, 0.00, 1, 1, 12,  37.1688284, -97.7339165,   376.0, 2024,  3, 23, 21,  2, 58,        0,        0,   0,   0,   1.4,   0.7,   1.2,  0,  0, 28,  0,  0, 36,  0,  0,  0,  0, 27, 33,  0, 37,  0,  0, 16,  0, 30, 42,  0, 39,  0, 29, 32,  0,  0,  0,  0,  0,  0,  0
6, 6606, 5,N3MCA,     0.25, 3,   boost,   66.69,  97217.00,  347.71,    4.65,   21.75, 18.4, 3.91, 3.90, 3.92,  76.49,   1.78,   1.62, -18.81,   7.09,   0.31,  -0.61,   0.33,  -0.15,   0.88, 3.93, 3.92, 3.91, 0.00, 0.00, 1, 1, 12,  37.1688284, -97.7339165,   376.0, 2024,  3, 23, 21,  2, 58,        0,        0,   0,   0,   1.4,   0.7,   1.2,  0,  0, 28,  0,  0, 36,  0,  0,  0,  0, 27, 33,  0, 37,  0,  0, 16,  0, 30, 42,  0, 39,  0, 29, 32,  0,  0,  0,  0,  0,  0,  0
6, 6606, 5,N3MCA,     0.26, 3,   boost,   68.65,  97214.00,  347.97,    4.91,   22.43, 18.4, 3.91, 3.90, 3.92,  77.13,  -3.90,   1.57, -24.91,   1.29,  -1.04,  -0.60,   0.32,  -0.19,   0.88, 3.93, 3.92, 3.91, 0.00, 0.00, 1, 1, 12,  37.1688284, -97.7339165,   376.0, 2024,  3, 23, 21,  2, 58,        0,        0,   0,   0,   1.4,   0.7,   1.2,  0,  0, 28,  0,  0, 36,  0,  0,  0,  0, 27, 33,  0, 37,  0,  0, 16,  0, 30, 42,  0, 39,  0, 29, 32,  0,  0,  0,  0,  0,  0,  0
6, 6606, 5,N3MCA,     0.27, 3,   boost,   70.12,  97205.00,  348.75,    5.68,   23.12, 18.4, 3.91, 3.90, 3.92,  76.16,   1.45,   3.56, -25.89,   1.47,  -0.12,  -0.66,   0.32,  -0.24,   0.87, 3.93, 3.92, 3.91, 0.00, 0.00, 1, 1, 12,  37.1688284, -97.7339165,   376.0, 2024,  3, 23, 21,  2, 58,        0,        0,   0,   0,   1.4,   0.7,   1.2,  0,  0, 28,  0,  0, 36,  0,  0,  0,  0, 27, 33,  0, 37,  0,  0, 16,  0, 30, 42,  0, 39,  0, 29, 32,  0,  0,  0,  0,  0,  0,  0
6, 6606, 5,N3MCA,     0.28, 3,   boost,   68.65,  97207.00,  348.57,    5.51,   23.81, 18.4, 3.91, 3.90, 3.92,  77.18,  -1.08,   3.14, -30.59,  -0.05,  -0.55,  -0.73,   0.33,  -0.10,   0.87, 3.93, 3.92, 3.91, 0.00, 0.00, 1, 1, 12,  37.1688284, -97.7339165,   376.0, 2024,  3, 23, 21,  2, 58,        0,        0,   0,   0,   1.4,   0.7,   1.2,  0,  0, 28,  0,  0, 36,  0,  0,  0,  0, 27, 33,  0, 37,  0,  0, 16,  0, 30, 42,  0, 39,  0, 29, 32,  0,  0,  0,  0,  0,  0,  0
6, 6606, 5,N3MCA,     0.29, 3,   boost,   71.59,  97188.00,  350.21,    7.14,   24.50, 18.4, 3.91, 3.90, 3.92,  76.49,  -2.75,   3.68, -25.95,   3.06,  -1.28,  -0.65,   0.35,   0.01,   0.86, 3.93, 3.92, 3.91, 0.00, 0.00, 1, 1, 12,  37.1688284, -97.7339165,   376.0, 2024,  3, 23, 21,  2, 58,        0,        0,   0,   0,   1.4,   0.7,   1.2,  0,  0, 28,  0,  0, 36,  0,  0,  0,  0, 27, 33,  0, 37,  0,  0, 16,  0, 30, 42,  0, 39,  0, 29, 32,  0,  0,  0,  0,  0,  0,  0
6, 6606, 5,N3MCA,     0.30, 3,   boost,   67.18,  97190.00,  350.04,    6.97,   25.19, 18.4, 3.91, 3.90, 3.92,  76.63,   0.36,   1.22, -27.23,   1.23,  -0.85,  -0.65,   0.35,   0.10,   0.86, 3.93, 3.92, 3.91, 0.00, 0.00, 1, 1, 12,  37.1688284, -97.7339165,   376.0, 2024,  3, 23, 21,  2, 58,        0,        0,   0,   0,   1.4,   0.7,   1.2,  0,  0, 28,  0,  0, 36,  0,  0,  0,  0, 27, 33,  0, 37,  0,  0, 16,  0, 30, 42,  0, 39,  0, 29, 32,  0,  0,  0,  0,  0,  0,  0
6, 6606, 5,N3MCA,     0.31, 3,   boost,   70.12,  97176.00,  351.24,    8.18,   25.88, 18.4, 3.91, 3.90, 3.92,  75.73,   1.39,   2.02, -29.55,  -0.05,  -0.55,  -0.63,   0.32,   0.03,   0.86, 3.93, 3.92, 3.91, 0.00, 0.00, 1, 1, 12,  37.1688284, -97.7339165,   376.0, 2024,  3, 23, 21,  2, 58,        0,        0,   0,   0,   1.4,   0.7,   1.2,  0,  0, 28,  0,  0, 36,  0,  0,  0,  0, 27, 33,  0, 37,  0,  0, 16,  0, 30, 42,  0, 39,  0, 29, 32,  0,  0,  0,  0,  0,  0,  0
6, 6606, 5,N3MCA,     0.32, 3,   boost,   70.12,  97172.00,  351.59,    8.52,   26.56, 18.4, 3.91, 3.90, 3.92,  75.36,  -1.76,  -0.12, -30.59,   2.33,  -0.37,  -0.62,   0.35,   0.05,   0.85, 3.93, 3.92, 3.91, 0.00, 0.00, 1, 1, 12,  37.1688284, -97.7339165,   376.0, 2024,  3, 23, 21,  2, 58,        0,        0,   0,   0,   1.4,   0.7,   1.2,  0,  0, 28,  0,  0, 36,  0,  0,  0,  0, 27, 33,  0, 37,  0,  0, 16,  0, 30, 42,  0, 39,  0, 29, 32,  0,  0,  0,  0,  0,  0,  0
6, 6606, 5,N3MCA,     0.33, 3,   boost,   62.76,  97201.00,  349.09,    6.02,   27.23, 18.4, 3.91, 3.90, 3.92,  75.36,  -1.76,  -0.12, -30.59,   2.33,  -0.37,  -0.62,   0.35,   0.05,   0.83, 3.93, 3.92, 3.91, 0.00, 0.00, 1, 1, 12,  37.1688284, -97.7339165,   376.0, 2024,  3, 23, 21,  2, 58,        0,        0,   0,   0,   1.4,   0.7,   1.2,  0,  0, 28,  0,  0, 36,  0,  0,  0,  0, 27, 33,  0, 37,  0,  0, 16,  0, 30, 42,  0, 39,  0, 29, 32,  0,  0,  0,  0,  0,  0,  0
6, 6606, 5,N3MCA,     0.34, 3,   boost,   65.21,  97211.00,  348.23,    5.16,   27.89, 18.4, 3.91, 3.93, 3.92,  74.78,   2.64,   3.13, -34.98,   6.29,   0.43,  -0.61,   0.33,   0.08,   0.79, 3.94, 3.92, 3.92, 0.00, 0.00, 1, 1, 12,  37.1688284, -97.7339165,   376.0, 2024,  3, 23, 21,  2, 58,        0,        0,   0,   0,   1.4,   0.7,   1.2,  0,  0, 28,  0,  0, 36,  0,  0,  0,  0, 27, 33,  0, 37,  0,  0, 16,  0, 30, 42,  0, 39,  0, 29, 32,  0,  0,  0,  0,  0,  0,  0
6, 6606, 5,N3MCA,     0.34, 3,   boost,   65.21,  97211.00,  348.23,    5.16,   27.89, 18.4, 3.91, 3.93, 3.92,  74.78,   2.64,   3.13, -34.98,   6.29,   0.43,  -0.61,   0.33,   0.08,   0.79, 3.94, 3.92, 3.92, 0.00, 0.00, 1, 1, 12,  37.1688284, -97.7339165,   376.0, 2024,  3, 23, 21,  2, 58,        0,        0,   0,   0,   1.4,   0.7,   1.2,  0,  0, 28,  0,  0, 36,  0,  0,  0,  0, 27, 33,  0, 37,  0,  0, 16,  0, 30, 42,  0, 39,  0, 29, 32,  0,  0,  0,  0,  0,  0,  0
6, 6606, 5,N3MCA,     0.35, 3,   boost,   65.21,  97175.00,  351.33,    8.26,   28.56, 18.4, 3.91, 3.93, 3.92,  76.51,  -2.05,  -0.45, -36.02,  -0.97,  -1.34,  -0.61,   0.32,   0.13,   0.80, 3.94, 3.92, 3.92, 0.00, 0.00, 1, 1, 12,  37.1688284, -97.7339165,   376.0, 2024,  3, 23, 21,  2, 58,        0,        0,   0,   0,   1.4,   0.7,   1.2,  0,  0, 28,  0,  0, 36,  0,  0,  0,  0, 27, 33,  0, 37,  0,  0, 16,  0, 30, 42,  0, 39,  0, 29, 32,  0,  0,  0,  0,  0,  0,  0
6, 6606, 5,N3MCA,     0.36, 3,   boost,   66.19,  97171.00,  351.67,    8.61,   29.22, 18.4, 3.91, 3.93, 3.92,  75.81,  -1.20,   2.12, -33.45,   0.37,  -1.52,  -0.60,   0.34,   0.09,   0.81, 3.94, 3.92, 3.92, 0.00, 0.00, 1, 1, 12,  37.1688284, -97.7339165,   376.0, 2024,  3, 23, 21,  2, 58,        0,        0,   0,   0,   1.4,   0.7,   1.2,  0,  0, 28,  0,  0, 36,  0,  0,  0,  0, 27, 33,  0, 37,  0,  0, 16,  0, 30, 42,  0, 39,  0, 29, 32,  0,  0,  0,  0,  0,  0,  0
6, 6606, 5,N3MCA,     0.37, 3,   boost,   71.59,  97177.00,  351.16,    8.09,   29.90, 18.4, 3.91, 3.93, 3.92,  75.77,  -0.45,   4.20, -33.27,   1.29,  -0.98,  -0.62,   0.34,   0.10,   0.81, 3.94, 3.92, 3.92, 0.00, 0.00, 1, 1, 12,  37.1688284, -97.7339165,   376.0, 2024,  3, 23, 21,  2, 58,        0,        0,   0,   0,   1.4,   0.7,   1.2,  0,  0, 28,  0,  0, 36,  0,  0,  0,  0, 27, 33,  0, 37,  0,  0, 16,  0, 30, 42,  0, 39,  0, 29, 32,  0,  0,  0,  0,  0,  0,  0
6, 6606, 5,N3MCA,     0.38, 3,   boost,   67.18,  97182.00,  350.73,    7.66,   30.58, 18.4, 3.91, 3.93, 3.92,  75.87,  -0.60,   2.95, -34.86,   1.59,  -1.89,  -0.60,   0.34,   0.09,   0.82, 3.94, 3.92, 3.92, 0.00, 0.00, 1, 1, 12,  37.1688284, -97.7339165,   376.0, 2024,  3, 23, 21,  2, 58,        0,        0,   0,   0,   1.4,   0.7,   1.2,  0,  0, 28,  0,  0, 36,  0,  0,  0,  0, 27, 33,  0, 37,  0,  0, 16,  0, 30, 42,  0, 39,  0, 29, 32,  0,  0,  0,  0,  0,  0,  0
6, 6606, 5,N3MCA,     0.39, 3,   boost,   69.63,  97175.00,  351.33,    8.26,   31.25, 18.4, 3.91, 3.93, 3.92,  75.94,  -1.08,   2.31, -34.68,   1.35,  -1.89,  -0.60,   0.34,   0.09,   0.82, 3.94, 3.92, 3.92, 0.00, 0.00, 1, 1, 12,  37.1688284, -97.7339165,   376.0, 2024,  3, 23, 21,  2, 58,        0,        0,   0,   0,   1.4,   0.7,   1.2,  0,  0, 28,  0,  0, 36,  0,  0,  0,  0, 27, 33,  0, 37,  0,  0, 16,  0, 30, 42,  0, 39,  0, 29, 32,  0,  0,  0,  0,  0,  0,  0
6, 6606, 5,N3MCA,     0.40, 3,   boost,   67.67,  97166.00,  352.10,    9.04,   31.93, 18.4, 3.91, 3.93, 3.92,  76.14,  -1.24,   1.08, -35.16,   0.37,  -2.44,  -0.62,   0.32,   0.13,   0.84, 3.94, 3.92, 3.92, 0.00, 0.00, 1, 1, 12,  37.1688284, -97.7339165,   376.0, 2024,  3, 23, 21,  2, 58,        0,        0,   0,   0,   1.4,   0.7,   1.2,  0,  0, 28,  0,  0, 36,  0,  0,  0,  0, 27, 33,  0, 37,  0,  0, 16,  0, 30, 42,  0, 39,  0, 29, 32,  0,  0,  0,  0,  0,  0,  0
6, 6606, 5,N3MCA,     0.41, 3,   boost,   64.23,  97172.00,  351.59,    8.52,   32.60, 18.4, 3.91, 3.93, 3.92,  75.68,  -1.89,   2.69, -35.90,  -0.30,  -2.07,  -0.61,   0.34,   0.08,   0.86, 3.94, 3.92, 3.92, 0.00, 0.00, 1, 1, 12,  37.1688284, -97.7339165,   376.0, 2024,  3, 23, 21,  2, 58,        0,        0,   0,   0,   1.4,   0.7,   1.2,  0,  0, 28,  0,  0, 36,  0,  0,  0,  0, 27, 33,  0, 37,  0,  0, 16,  0, 30, 42,  0, 39,  0, 29, 32,  0,  0,  0,  0,  0,  0,  0
6, 6606, 5,N3MCA,     0.42, 3,   boost,   65.21,  97167.00,  352.02,    8.95,   33.26, 18.4, 3.91, 3.93, 3.92,  75.98,  -1.49,   3.09, -37.24,  -0.48,  -2.44,  -0.61,   0.34,   0.11,   0.88, 3.94, 3.92, 3.92, 0.00, 0.00, 1, 1, 12,  37.1688284, -97.7339165,   376.0, 2024,  3, 23, 21,  2, 58,        0,        0,   0,   0,   1.4,   0.7,   1.2,  0,  0, 28,  0,  0, 36,  0,  0,  0,  0, 27, 33,  0, 37,  0,  0, 16,  0, 30, 42,  0, 39,  0, 29, 32,  0,  0,  0,  0,  0,  0,  0
6, 6606, 5,N3MCA,     0.43, 3,   boost,   66.19,  97171.00,  351.67,    8.61,   33.93, 18.4, 3.91, 3.93, 3.92,  75.84,  -0.20,   2.81, -38.03,  -0.85,  -3.05,  -0.60,   0.32,   0.10,   0.91, 3.94, 3.92, 3.92, 0.00, 0.00, 1, 1, 12,  37.1688284, -97.7339165,   376.0, 2024,  3, 23, 21,  2, 58,        0,        0,   0,   0,   1.4,   0.7,   1.2,  0,  0, 28,  0,  0, 36,  0,  0,  0,  0, 27, 33,  0, 37,  0,  0, 16,  0, 30, 42,  0, 39,  0, 29, 32,  0,  0,  0,  0,  0,  0,  0
6, 6606, 5,N3MCA,     0.44, 3,   boost,   67.67,  97150.00,  353.48,   10.42,   34.59, 18.4, 3.91, 3.93, 3.92,  75.84,  -0.20,   2.81, -38.03,  -0.85,  -3.05,  -0.60,   0.32,   0.10,   0.94, 3.94, 3.92, 3.92, 0.00, 0.00, 1, 1, 12,  37.1688284, -97.7339165,   376.0, 2024,  3, 23, 21,  2, 58,        0,        0,   0,   0,   1.4,   0.7,   1.2,  0,  0, 28,  0,  0, 36,  0,  0,  0,  0, 27, 33,  0, 37,  0,  0, 16,  0, 30, 42,  0, 39,  0, 29, 32,  0,  0,  0,  0,  0,  0,  0
6, 6606, 5,N3MCA,     0.45, 3,   boost,   68.16,  97143.00,  354.09,   11.02,   35.26, 18.4, 3.91, 3.93, 3.92,  75.96,  -0.41,   2.67, -38.34,  -1.03,  -3.23,  -0.61,   0.32,   0.12,   0.97, 3.94, 3.92, 3.92, 0.00, 0.00, 1, 1, 12,  37.1688284, -97.7339165,   376.0, 2024,  3, 23, 21,  2, 58,        0,        0,   0,   0,   1.4,   0.7,   1.2,  0,  0, 28,  0,  0, 36,  0,  0,  0,  0, 27, 33,  0, 37,  0,  0, 16,  0, 30, 42,  0, 39,  0, 29, 32,  0,  0,  0,  0,  0,  0,  0
6, 6606, 5,N3MCA,     0.46, 3,   boost,   66.69,  97138.00,  354.52,   11.45,   35.94, 18.4, 3.91, 3.93, 3.92,  75.98,  -2.31,   1.40, -39.44,  -1.34,  -3.72,  -0.62,   0.34,   0.10,   1.01, 3.94, 3.92, 3.92, 0.00, 0.00, 1, 1, 12,  37.1688284, -97.7339165,   376.0, 2024,  3, 23, 21,  2, 58,        0,        0,   0,   0,   1.4,   0.7,   1.2,  0,  0, 28,  0,  0, 36,  0,  0,  0,  0, 27, 33,  0, 37,  0,  0, 16,  0, 30, 42,  0, 39,  0, 29, 32,  0,  0,  0,  0,  0,  0,  0
6, 6606, 5,N3MCA,     0.47, 3,   boost,   68.16,  97129.00,  355.29,   12.22,   36.61, 18.4, 3.91, 3.93, 3.92,  75.85,  -1.70,   2.65, -41.08,  -1.52,  -3.78,  -0.61,   0.33,   0.11,   1.05, 3.94, 3.92, 3.92, 0.00, 0.00, 1, 1, 12,  37.1688284, -97.7339165,   376.0, 2024,  3, 23, 21,  2, 58,        0,        0,   0,   0,   1.4,   0.7,   1.2,  0,  0, 28,  0,  0, 36,  0,  0,  0,  0, 27, 33,  0, 37,  0,  0, 16,  0, 30, 42,  0, 39,  0, 29, 32,  0,  0,  0,  0,  0,  0,  0
6, 6606, 5,N3MCA,     0.48, 3,   boost,   68.16,  97125.00,  355.64,   12.57,   37.29, 18.4, 3.91, 3.93, 3.92,  76.03,  -0.44,   2.71, -41.39,  -2.01,  -4.09,  -0.64,   0.33,   0.13,   1.10, 3.94, 3.92, 3.92, 0.00, 0.00, 1, 1, 12,  37.1688284, -97.7339165,   376.0, 2024,  3, 23, 21,  2, 58,        0,        0,   0,   0,   1.4,   0.7,   1.2,  0,  0, 28,  0,  0, 36,  0,  0,  0,  0, 27, 33,  0, 37,  0,  0, 16,  0, 30, 42,  0, 39,  0, 29, 32,  0,  0,  0,  0,  0,  0,  0
6, 6606, 5,N3MCA,     0.49, 3,   boost,   66.19,  97126.00,  355.55,   12.48,   37.96, 18.4, 3.91, 3.93, 3.92,  76.30,  -1.04,   3.60, -41.45,  -2.62,  -4.27,  -0.58,   0.32,   0.10,   1.15, 3.94, 3.92, 3.92, 0.00, 0.00, 1, 1, 12,  37.1688284, -97.7339165,   376.0, 2024,  3, 23, 21,  2, 58,        0,        0,   0,   0,   1.4,   0.7,   1.2,  0,  0, 28,  0,  0, 36,  0,  0,  0,  0, 27, 33,  0, 37,  0,  0, 16,  0, 30, 42,  0, 39,  0, 29, 32,  0,  0,  0,  0,  0,  0,  0
6, 6606, 5,N3MCA,     0.50, 3,   boost,   67.18,  97112.00,  356.76,   13.69,   38.63, 18.4, 3.91, 3.93, 3.92,  76.19,  -1.61,   3.24, -41.57,  -2.92,  -4.64,  -0.60,   0.33,   0.09,   1.20, 3.94, 3.92, 3.92, 0.00, 0.00, 1, 1, 12,  37.1688284, -97.7339165,   376.0, 2024,  3, 23, 21,  2, 58,        0,        0,   0,   0,   1.4,   0.7,   1.2,  0,  0, 28,  0,  0, 36,  0,  0,  0,  0, 27, 33,  0, 37,  0,  0, 16,  0, 30, 42,  0, 39,  0, 29, 32,  0,  0,  0,  0,  0,  0,  0
6, 6606, 5,N3MCA,     0.51, 3,   boost,   67.18,  97118.00,  356.24,   13.17,   39.31, 18.4, 3.91, 3.93, 3.92,  76.26,  -1.58,   1.66, -42.49,  -2.98,  -4.82,  -0.62,   0.33,   0.11,   1.26, 3.94, 3.92, 3.92, 0.00, 0.00, 1, 1, 12,  37.1688284, -97.7339165,   376.0, 2024,  3, 23, 21,  2, 58,        0,        0,   0,   0,   1.4,   0.7,   1.2,  0,  0, 28,  0,  0, 36,  0,  0,  0,  0, 27, 33,  0, 37,  0,  0, 16,  0, 30, 42,  0, 39,  0, 29, 32,  0,  0,  0,  0,  0,  0,  0
6, 6606, 5,N3MCA,     0.52, 3,   boost,   69.63,  97108.00,  357.10,   14.03,   39.98, 18.4, 3.91, 3.93, 3.92,  75.93,  -1.34,   1.48, -42.37,  -3.11,  -5.00,  -0.61,   0.32,   0.16,   1.32, 3.94, 3.92, 3.92, 0.00, 0.00, 1, 1, 12,  37.1688284, -97.7339165,   376.0, 2024,  3, 23, 21,  2, 58,        0,        0,   0,   0,   1.4,   0.7,   1.2,  0,  0, 28,  0,  0, 36,  0,  0,  0,  0, 27, 33,  0, 37,  0,  0, 16,  0, 30, 42,  0, 39,  0, 29, 32,  0,  0,  0,  0,  0,  0,  0
6, 6606, 5,N3MCA,     0.53, 3,   boost,   65.70,  97124.00,  355.72,   12.66,   40.66, 18.4, 3.91, 3.93, 3.92,  76.05,  -0.66,   1.97, -42.18,  -3.17,  -5.19,  -0.61,   0.34,   0.11,   1.38, 3.94, 3.92, 3.92, 0.00, 0.00, 1, 1, 12,  37.1688284, -97.7339165,   376.0, 2024,  3, 23, 21,  2, 58,        0,        0,   0,   0,   1.4,   0.7,   1.2,  0,  0, 28,  0,  0, 36,  0,  0,  0,  0, 27, 33,  0, 37,  0,  0, 16,  0, 30, 42,  0, 39,  0, 29, 32,  0,  0,  0,  0,  0,  0,  0
6, 6606, 5,N3MCA,     0.54, 3,   boost,   67.67,  97105.00,  357.36,   14.29,   41.33, 18.4, 3.91, 3.93, 3.92,  76.20,  -1.38,   2.75, -42.31,  -3.41,  -5.19,  -0.62,   0.33,   0.05,   1.44, 3.94, 3.92, 3.92, 0.00, 0.00, 1, 1, 12,  37.1688284, -97.7339165,   376.0, 2024,  3, 23, 21,  2, 58,        0,        0,   0,   0,   1.4,   0.7,   1.2,  0,  0, 28,  0,  0, 36,  0,  0,  0,  0, 27, 33,  0, 37,  0,  0, 16,  0, 30, 42,  0, 39,  0, 29, 32,  0,  0,  0,  0,  0,  0,  0
6, 6606, 5,N3MCA,     0.55, 3,   boost,   67.18,  97101.00,  357.70,   14.64,   42.00, 18.4, 3.91, 3.93, 3.92,  76.20,  -1.38,   2.75, -42.31,  -3.41,  -5.19,  -0.62,   0.33,   0.05,   1.50, 3.94, 3.92, 3.92, 0.00, 0.00, 1, 1, 12,  37.1688284, -97.7339165,   376.0, 2024,  3, 23, 21,  2, 58,        0,        0,   0,   0,   1.4,   0.7,   1.2,  0,  0, 28,  0,  0, 36,  0,  0,  0,  0, 27, 33,  0, 37,  0,  0, 16,  0, 30, 42,  0, 39,  0, 29, 32,  0,  0,  0,  0,  0,  0,  0
6, 6606, 5,N3MCA,     0.56, 3,   boost,   65.70,  97124.00,  355.72,   12.66,   42.67, 18.4, 3.91, 3.93, 3.92,  76.44,  -1.56,   3.13, -41.69,  -3.78,  -5.49,  -0.61,   0.34,   0.15,   1.57, 3.94, 3.92, 3.92, 0.00, 0.00, 1, 1, 12,  37.1688284, -97.7339165,   376.0, 2024,  3, 23, 21,  2, 58,        0,        0,   0,   0,   1.4,   0.7,   1.2,  0,  0, 28,  0,  0, 36,  0,  0,  0,  0, 27, 33,  0, 37,  0,  0, 16,  0, 30, 42,  0, 39,  0, 29, 32,  0,  0,  0,  0,  0,  0,  0
6, 6606, 5,N3MCA,     0.57, 3,   boost,   67.67,  97078.00,  359.69,   16.62,   43.34, 18.4, 3.91, 3.93, 3.92,  76.31,  -1.15,   2.33, -40.96,  -4.69,  -5.74,  -0.62,   0.33,   0.10,   1.64, 3.94, 3.92, 3.92, 0.00, 0.00, 1, 1, 12,  37.1688284, -97.7339165,   376.0, 2024,  3, 23, 21,  2, 58,        0,        0,   0,   0,   1.4,   0.7,   1.2,  0,  0, 28,  0,  0, 36,  0,  0,  0,  0, 27, 33,  0, 37,  0,  0, 16,  0, 30, 42,  0, 39,  0, 29, 32,  0,  0,  0,  0,  0,  0,  0
6, 6606, 5,N3MCA,     0.58, 3,   boost,   66.69,  97077.00,  359.77,   16.71,   44.01, 18.4, 3.91, 3.93, 3.92,  76.46,  -1.23,   2.70, -40.78,  -5.06,  -6.10,  -0.62,   0.33,   0.12,   1.72, 3.94, 3.92, 3.92, 0.00, 0.00, 1, 1, 12,  37.1688284, -97.7339165,   376.0, 2024,  3, 23, 21,  2, 58,        0,        0,   0,   0,   1.4,   0.7,   1.2,  0,  0, 28,  0,  0, 36,  0,  0,  0,  0, 27, 33,  0, 37,  0,  0, 16,  0, 30, 42,  0, 39,  0, 29, 32,  0,  0,  0,  0,  0,  0,  0
